{
"type": "FeatureCollection",
"name": "nma_stations",
"crs": { "type": "name", "properties": { "name": "urn:ogc:def:crs:OGC:1.3:CRS84" } },
"features": [
{ "type": "Feature", "properties": { "OBJECTID": 42, "randomID": 42.0, "long": 38.25, "lat": 10.05, "alt": 1860.0, "station_na": "Filiklik", "class": 3.0, "Region": "Oromia", "Zone": "N/Shoa", "Wereda": "Werejarso" }, "geometry": { "type": "Point", "coordinates": [ 38.250000000211408, 10.049999999554947 ] } },
{ "type": "Feature", "properties": { "OBJECTID": 46, "randomID": 46.0, "long": 38.14, "lat": 10.02, "alt": 2560.0, "station_na": "Gohatsion", "class": 3.0, "Region": "Oromia", "Zone": "N/Shoa", "Wereda": "Werejarso" }, "geometry": { "type": "Point", "coordinates": [ 38.140000000297725, 10.019999999558179 ] } },
{ "type": "Feature", "properties": { "OBJECTID": 323, "randomID": 323.0, "long": 37.4931, "lat": 11.2745, "alt": 2179.0, "station_na": "Adet", "class": 1.0, "Region": "Amhara", "Zone": "W.Gojjam", "Wereda": "Yilmanadenissa" }, "geometry": { "type": "Point", "coordinates": [ 37.493099999937279, 11.274499999642282 ] } },
{ "type": "Feature", "properties": { "OBJECTID": 331, "randomID": 331.0, "long": 37.7393, "lat": 10.3257, "alt": 2446.0, "station_na": "Debere Markos", "class": 1.0, "Region": null, "Zone": "E.Gojjam", "Wereda": "Gozamin" }, "geometry": { "type": "Point", "coordinates": [ 37.739299999640984, 10.325699999875866 ] } },
{ "type": "Feature", "properties": { "OBJECTID": 332, "randomID": 332.0, "long": 38.1623, "lat": 10.6506, "alt": 2508.0, "station_na": "Debere Work", "class": 1.0, "Region": null, "Zone": "E.Gojjam", "Wereda": "E.Enawuga" }, "geometry": { "type": "Point", "coordinates": [ 38.162300000009644, 10.650600000150991 ] } },
{ "type": "Feature", "properties": { "OBJECTID": 334, "randomID": 334.0, "long": 37.1716, "lat": 10.5916, "alt": 1707.0, "station_na": "Lay Bir", "class": 1.0, "Region": null, "Zone": "W.Gojjam", "Wereda": "Jabitenan" }, "geometry": { "type": "Point", "coordinates": [ 37.1716000003711, 10.591600000140573 ] } },
{ "type": "Feature", "properties": { "OBJECTID": 337, "randomID": 337.0, "long": 38.2237, "lat": 11.0676, "alt": 2417.0, "station_na": "Motta", "class": 1.0, "Region": null, "Zone": "E.Gojjam", "Wereda": "H.ense" }, "geometry": { "type": "Point", "coordinates": [ 38.223699999752924, 11.067599999549788 ] } },
{ "type": "Feature", "properties": { "OBJECTID": 343, "randomID": 343.0, "long": 38.1083, "lat": 10.2449, "alt": 2420.0, "station_na": "Yetinora", "class": 1.0, "Region": null, "Zone": "E.Gojjam", "Wereda": "Dejen" }, "geometry": { "type": "Point", "coordinates": [ 38.108299999836959, 10.244900000082998 ] } },
{ "type": "Feature", "properties": { "OBJECTID": 346, "randomID": 346.0, "long": 38.1567, "lat": 10.1125, "alt": 1823.0, "station_na": "AbaySheleko", "class": 3.0, "Region": null, "Zone": "E.Gojjam", "Wereda": "Dejen" }, "geometry": { "type": "Point", "coordinates": [ 38.156699999592043, 10.112500000201219 ] } },
{ "type": "Feature", "properties": { "OBJECTID": 349, "randomID": 349.0, "long": 37.563, "lat": 10.4325, "alt": 2386.0, "station_na": "Amanuel", "class": 3.0, "Region": null, "Zone": "E.Gojjam", "Wereda": "Machakel" }, "geometry": { "type": "Point", "coordinates": [ 37.562999999603981, 10.4325000003968 ] } },
{ "type": "Feature", "properties": { "OBJECTID": 355, "randomID": 355.0, "long": 38.2035, "lat": 10.4448, "alt": 2532.0, "station_na": "Bichena", "class": 3.0, "Region": null, "Zone": "E.Gojjam", "Wereda": "Enemay" }, "geometry": { "type": "Point", "coordinates": [ 38.203499999913745, 10.444799999818844 ] } },
{ "type": "Feature", "properties": { "OBJECTID": 356, "randomID": 356.0, "long": 37.1299, "lat": 10.7115, "alt": 2107.0, "station_na": "Burie", "class": 3.0, "Region": null, "Zone": "W.Gojjam", "Wereda": "Burie" }, "geometry": { "type": "Point", "coordinates": [ 37.129900000353629, 10.711499999866975 ] } },
{ "type": "Feature", "properties": { "OBJECTID": 359, "randomID": 359.0, "long": 37.4741, "lat": 10.3048, "alt": 2234.0, "station_na": "Debre Elias", "class": 3.0, "Region": null, "Zone": "E.Gojjam", "Wereda": "D/Elias" }, "geometry": { "type": "Point", "coordinates": [ 37.474099999582329, 10.304799999868628 ] } },
{ "type": "Feature", "properties": { "OBJECTID": 360, "randomID": 360.0, "long": 37.4858, "lat": 10.5656, "alt": 2117.0, "station_na": "Demebecha", "class": 3.0, "Region": null, "Zone": "W.Gojjam", "Wereda": "Demebecha" }, "geometry": { "type": "Point", "coordinates": [ 37.485800000162683, 10.565599999760899 ] } },
{ "type": "Feature", "properties": { "OBJECTID": 362, "randomID": 362.0, "long": 37.7416, "lat": 10.854, "alt": 2782.0, "station_na": "DiguaTsion", "class": 3.0, "Region": null, "Zone": "E.Gojjam", "Wereda": "Bibugn" }, "geometry": { "type": "Point", "coordinates": [ 37.741600000154001, 10.85399999967194 ] } },
{ "type": "Feature", "properties": { "OBJECTID": 363, "randomID": 363.0, "long": 37.6081, "lat": 10.7408, "alt": 2823.0, "station_na": "Dingay Ber", "class": 3.0, "Region": null, "Zone": "W.Gojjam", "Wereda": "Degadamot" }, "geometry": { "type": "Point", "coordinates": [ 37.608099999654179, 10.740800000374222 ] } },
{ "type": "Feature", "properties": { "OBJECTID": 366, "randomID": 366.0, "long": 37.2626, "lat": 10.6816, "alt": 1872.0, "station_na": "Finote Selam", "class": 3.0, "Region": null, "Zone": "W.Gojjam", "Wereda": "Jabitenana" }, "geometry": { "type": "Point", "coordinates": [ 37.262600000004127, 10.681600000154141 ] } },
{ "type": "Feature", "properties": { "OBJECTID": 371, "randomID": 371.0, "long": 37.1035, "lat": 10.8571, "alt": 2587.0, "station_na": "Gundil", "class": 3.0, "Region": null, "Zone": "W.Gojjam", "Wereda": "Sekela" }, "geometry": { "type": "Point", "coordinates": [ 37.103500000193492, 10.857100000099994 ] } },
{ "type": "Feature", "properties": { "OBJECTID": 379, "randomID": 379.0, "long": 38.3437, "lat": 10.4449, "alt": 2375.0, "station_na": "Shebeleberenta", "class": 3.0, "Region": null, "Zone": "E.Gojjam", "Wereda": "Shebeleberenta" }, "geometry": { "type": "Point", "coordinates": [ 38.343699999584658, 10.444900000301104 ] } },
{ "type": "Feature", "properties": { "OBJECTID": 380, "randomID": 380.0, "long": 36.9508, "lat": 10.6441, "alt": 2093.0, "station_na": "Shindi", "class": 3.0, "Region": null, "Zone": "W.Gojjam", "Wereda": "Wonberma" }, "geometry": { "type": "Point", "coordinates": [ 36.950800000298543, 10.644099999942078 ] } },
{ "type": "Feature", "properties": { "OBJECTID": 382, "randomID": 382.0, "long": 36.8902, "lat": 10.5322, "alt": 2050.0, "station_na": "Wogedad", "class": 3.0, "Region": null, "Zone": "W.Gojjam", "Wereda": "Wonberma" }, "geometry": { "type": "Point", "coordinates": [ 36.890200000338993, 10.532200000367034 ] } },
{ "type": "Feature", "properties": { "OBJECTID": 385, "randomID": 385.0, "long": 38.1466, "lat": 10.3291, "alt": 2418.0, "station_na": "Yetimen", "class": 3.0, "Region": null, "Zone": "E.Gojjam", "Wereda": "Enemay" }, "geometry": { "type": "Point", "coordinates": [ 38.146600000456473, 10.329100000056632 ] } },
{ "type": "Feature", "properties": { "OBJECTID": 389, "randomID": 389.0, "long": 37.8452, "lat": 10.2535, "alt": 2412.0, "station_na": "Anedede", "class": 4.0, "Region": null, "Zone": "E.Gojjam", "Wereda": "Aneded" }, "geometry": { "type": "Point", "coordinates": [ 37.845200000375833, 10.253499999909018 ] } },
{ "type": "Feature", "properties": { "OBJECTID": 398, "randomID": 398.0, "long": 38.1507, "lat": 10.1712, "alt": 2448.0, "station_na": "Dejen", "class": 4.0, "Region": null, "Zone": "E.Gojjam", "Wereda": "Dejen" }, "geometry": { "type": "Point", "coordinates": [ 38.150699999690886, 10.171200000279507 ] } },
{ "type": "Feature", "properties": { "OBJECTID": 403, "randomID": 403.0, "long": 38.0671, "lat": 10.7427, "alt": 2710.0, "station_na": "Felege Birihan", "class": 4.0, "Region": null, "Zone": "E.Gojjam", "Wereda": "E.Enawuga" }, "geometry": { "type": "Point", "coordinates": [ 38.067099999980798, 10.742699999960353 ] } },
{ "type": "Feature", "properties": { "OBJECTID": 404, "randomID": 404.0, "long": 37.6085, "lat": 10.8499, "alt": 3000.0, "station_na": "Ferese Bet", "class": 4.0, "Region": null, "Zone": "W.Gojjam", "Wereda": "Dega damot" }, "geometry": { "type": "Point", "coordinates": [ 37.608499999786652, 10.849899999875035 ] } },
{ "type": "Feature", "properties": { "OBJECTID": 406, "randomID": 406.0, "long": 37.425, "lat": 10.821, "alt": 1931.0, "station_na": "Genet Abo", "class": 4.0, "Region": null, "Zone": "W.Gojjam", "Wereda": "Quarit" }, "geometry": { "type": "Point", "coordinates": [ 37.424999999911499, 10.821000000001836 ] } },
{ "type": "Feature", "properties": { "OBJECTID": 407, "randomID": 407.0, "long": 37.6036, "lat": 11.1752, "alt": 2304.0, "station_na": "Geregera", "class": 4.0, "Region": null, "Zone": "W.Gojjam", "Wereda": "Gonchi Qolela" }, "geometry": { "type": "Point", "coordinates": [ 37.603599999606182, 11.175199999640656 ] } },
{ "type": "Feature", "properties": { "OBJECTID": 410, "randomID": 410.0, "long": 38.0891, "lat": 10.9294, "alt": 2052.0, "station_na": "Gundowoin", "class": 4.0, "Region": null, "Zone": "E.Gojjam", "Wereda": "S.enese" }, "geometry": { "type": "Point", "coordinates": [ 38.089099999672534, 10.929399999596919 ] } },
{ "type": "Feature", "properties": { "OBJECTID": 412, "randomID": 412.0, "long": 37.9719, "lat": 10.9715, "alt": 2529.0, "station_na": "Keranyo", "class": 4.0, "Region": null, "Zone": "E.Gojjam", "Wereda": "H.E.ense" }, "geometry": { "type": "Point", "coordinates": [ 37.971900000227677, 10.971499999802452 ] } },
{ "type": "Feature", "properties": { "OBJECTID": 413, "randomID": 413.0, "long": 36.9736, "lat": 10.9017, "alt": 2492.0, "station_na": "Kessa", "class": 4.0, "Region": null, "Zone": "Awi", "Wereda": "Banja shikudad" }, "geometry": { "type": "Point", "coordinates": [ 36.973600000166975, 10.901699999761849 ] } },
{ "type": "Feature", "properties": { "OBJECTID": 416, "randomID": 416.0, "long": 38.1035, "lat": 11.3034, "alt": 2350.0, "station_na": "Komafasiledes", "class": 4.0, "Region": null, "Zone": "S.Gondar", "Wereda": "ESTIE" }, "geometry": { "type": "Point", "coordinates": [ 38.103499999788724, 11.303399999605924 ] } },
{ "type": "Feature", "properties": { "OBJECTID": 419, "randomID": 419.0, "long": 37.9428, "lat": 10.251, "alt": 2469.0, "station_na": "Lumami", "class": 4.0, "Region": null, "Zone": "E.Gojjam", "Wereda": "Awabel" }, "geometry": { "type": "Point", "coordinates": [ 37.942800000362602, 10.251000000261064 ] } },
{ "type": "Feature", "properties": { "OBJECTID": 421, "randomID": 421.0, "long": 37.1774, "lat": 10.6986, "alt": 1989.0, "station_na": "Mankussa", "class": 4.0, "Region": null, "Zone": "W.Gojjam", "Wereda": "Jabitenan" }, "geometry": { "type": "Point", "coordinates": [ 37.177399999982185, 10.698600000412894 ] } },
{ "type": "Feature", "properties": { "OBJECTID": 423, "randomID": 423.0, "long": 38.2675, "lat": 10.8777, "alt": 2676.0, "station_na": "Mertolemariam", "class": 4.0, "Region": null, "Zone": "E.Gojjam", "Wereda": "E.Sarmdir" }, "geometry": { "type": "Point", "coordinates": [ 38.267499999586832, 10.877700000122726 ] } },
{ "type": "Feature", "properties": { "OBJECTID": 427, "randomID": 427.0, "long": 37.431, "lat": 10.996, "alt": 2147.0, "station_na": "Quarit", "class": 4.0, "Region": null, "Zone": "W.Gojjam", "Wereda": "Quarit" }, "geometry": { "type": "Point", "coordinates": [ 37.431000000293331, 10.996000000024617 ] } },
{ "type": "Feature", "properties": { "OBJECTID": 428, "randomID": 428.0, "long": 37.7667, "lat": 10.5481, "alt": 2958.0, "station_na": "RebuGebia", "class": 4.0, "Region": null, "Zone": "E.Gojjam", "Wereda": "Sinan" }, "geometry": { "type": "Point", "coordinates": [ 37.766700000345914, 10.5480999996485 ] } },
{ "type": "Feature", "properties": { "OBJECTID": 429, "randomID": 429.0, "long": 36.9873, "lat": 10.6559, "alt": 2057.0, "station_na": "Sebadir", "class": 4.0, "Region": null, "Zone": "W.Gojjam", "Wereda": "wonberma" }, "geometry": { "type": "Point", "coordinates": [ 36.987300000212635, 10.655899999838336 ] } },
{ "type": "Feature", "properties": { "OBJECTID": 430, "randomID": 430.0, "long": 37.2137, "lat": 10.9882, "alt": 2715.0, "station_na": "Sekela", "class": 4.0, "Region": null, "Zone": "W.Gojjam", "Wereda": "Sekela" }, "geometry": { "type": "Point", "coordinates": [ 37.213699999987242, 10.988199999853359 ] } },
{ "type": "Feature", "properties": { "OBJECTID": 433, "randomID": 433.0, "long": 37.0269, "lat": 10.8544, "alt": 2450.0, "station_na": "Tillili", "class": 4.0, "Region": null, "Zone": "Awi", "Wereda": "G.shekudad" }, "geometry": { "type": "Point", "coordinates": [ 37.026900000111908, 10.854400000202299 ] } },
{ "type": "Feature", "properties": { "OBJECTID": 436, "randomID": 436.0, "long": 37.3501, "lat": 10.5293, "alt": 2013.0, "station_na": "Wad Eyesus", "class": 4.0, "Region": null, "Zone": "W.Gojjam", "Wereda": "Dembecha" }, "geometry": { "type": "Point", "coordinates": [ 37.350099999988203, 10.529300000200676 ] } },
{ "type": "Feature", "properties": { "OBJECTID": 438, "randomID": 438.0, "long": 37.425, "lat": 10.5975, "alt": 2000.0, "station_na": "Yechereka", "class": 4.0, "Region": null, "Zone": "W.Gojjam", "Wereda": "Dembecha" }, "geometry": { "type": "Point", "coordinates": [ 37.425000000282104, 10.597499999692525 ] } },
{ "type": "Feature", "properties": { "OBJECTID": 439, "randomID": 439.0, "long": 37.7488, "lat": 10.1533, "alt": 2322.0, "station_na": "Yejubie", "class": 4.0, "Region": null, "Zone": "E.Gojjam", "Wereda": "Basoleben" }, "geometry": { "type": "Point", "coordinates": [ 37.748799999589885, 10.153299999612134 ] } },
{ "type": "Feature", "properties": { "OBJECTID": 808, "randomID": 808.0, "long": 38.4833, "lat": 10.133, "alt": 2490.0, "station_na": "Sererkula", "class": 4.0, "Region": "Oromiya", "Zone": "N.shewa", "Wereda": null }, "geometry": { "type": "Point", "coordinates": [ 38.48329999974527, 10.132999999728627 ] } }
]
}
